[
    {
        "title": "Radio SCONTOLV - 99.8 МГц",
        "video": null,
        "localVideo": "./dx_videos/scontolv_2024.mp4",
        "type": "Тропо",
        "antennaDir": "Юго-Запад",
        "polarization": "Горизонтальная",
        "height": "3 м",
        "antennaType": "5-элементная Yagi",
        "antennaImage": "./index_files/antenna1.jpg",
        "date": "23.06.2024",
        "receiverName": "tef 6616 lada vesta",
        "receiverImage": "./index_files/1box.jpg",
        "latRX": 58.8167, "lngRX": 30.3333,
        "latTX": 57.5380, "lngTX": 25.4260,
        "season": 2024
    },
    {
        "title": "CLARA NL - 89.9 МГц",
        "localVideo": "./dx_videos/clara_nl_2025.mp4",
        "type": "Спорадик (Es)",
        "antennaDir": "Северо-Запад",
        "polarization": "Horizontal",
        "height": "13 м",
        "antennaType": "telescopic 860mm",
        "date": "07.06.2025",
        "receiverName": "tef 6616 lada vesta",
        "receiverImage": "./index_files/1box.jpg",
        "latRX": 59.9343, "lngRX": 30.3351,
        "latTX": 50.8512, "lngTX": 5.6910,
        "season": 2025
    },
    {
        "title": "BIG FM - 89.5 МГц",
        "localVideo": "./dx_videos/ger_89_5_2025.mp4",
        "type": "Спорадик (Es)",
        "antennaDir": "Северо-Запад",
        "polarization": "Horizontal",
        "height": "13 м",
        "antennaType": "telescopic 860mm",
        "date": "07.06.2025",
        "receiverName": "tef 6616 lada vesta",
        "receiverImage": "./index_files/1box.jpg",
        "latRX": 59.9343, "lngRX": 30.3351,
        "latTX": 48.7758, "lngTX": 9.1829,
        "season": 2025,
         "description": ""
    },
    {
        "title": "IASI RADIO (RUM) - 90.4 МГц",
        "video": "./dx_videos/rum.mp4",
        "type": "Спорадик (Es)",
        "antennaDir": "Северо-Запад",
        "polarization": "Вертикальная",
        "height": "10 м",
        "antennaType": "диполь 10+10m",
        "date": "09.06.2025",
        "receiverName": "RTL-SDR v3",
        "receiverImage": "./index_files/websdr3.jpg",
        "latRX": 59.9343, "lngRX": 30.3351,
        "latTX": 47.4489, "lngTX": 25.5708,
        "season": 2025
    },
  {
    "title": "Radio Nova (FIN) - 105.7 МГц",
    "video": null,
    "localVideo": "./dx_videos/nova_2026.mp4",
    "type": "Тропо",
    "antennaDir": "Северо-Запад",
    "polarization": "Вертикальная",
    "height": "8 м",
    "antennaType": "5-элементная Yagi",
    "antennaImage": null,
    "date": "08.05.2026",
    "receiverName": "TEF6686",
    "receiverImage": "https://avatars.mds.yandex.net/get-mpic/17662038/2a0000019ce5165b8b0418692e8ab2ba0041/orig",
    "latRX": 60.0833, "lngRX": 30.9167,
    "latTX": 60.1699, "lngTX": 24.9384,
    "season": 2026
},
{
    "title": "BBC Radio 2 - 88.7 МГц",
    "video": null,
    "localVideo": "./dx_videos/es_2025_bb.mp4",
    "type": "Спорадик (Es)",
    "antennaDir": "Запад-Юго-Запад",
    "polarization": "Горизонтальная",
    "height": "1.5 м",
    "antennaType": "телескоп 750 мм",
    "antennaImage": null,
    "date": "15.06.2025",
    "receiverName": "DIY SDR RDA5807",
    "receiverImage": "./index_files/rda_diy_boot.jpg",
 "latRX": 60.0833, "lngRX": 30.9167,
    "latTX": 54.1512,
    "lngTX": -6.4207,
    "season": 2025,
     "description": "первый спорадик, принятый на самоделку, ширпотреб rda5807 за 100р вытягивает в стерео"
},
{
    "title": "Yle Radio Suomi - 94.6 МГц",
    "video": null,
    "localVideo": "./dx_videos/rsuomi_2025.mp4",
    "type": "тропо",
    "antennaDir": "Северо-Запад",
    "polarization": "Горизонтальная",
    "height": "1.5 м",
    "antennaType": "телескоп 750 мм",
    "antennaImage": null,
    "date": "01.05.2025",
    "receiverName": "DIY SDR RDA5807",
    "receiverImage": "./index_files/rda_diy_boot.jpg",
    "latRX": 60.0833,
    "lngRX": 30.9167,
    "latTX": 61.6886,
    "lngTX": 27.2724,
    "season": 2025
},

    {
        "title": "LR4 - 100.5 МГц",
        "video": null,
        "localVideo": "./dx_videos/1068_lr_2024.mp4",
        "type": "тропо",
        "antennaDir": "Юго-Запад",
        "polarization": "Горизонтальная",
        "height": "1.5 м",
        "antennaType": "телескоп 750 мм",
        "antennaImage": null,
        "date": "05.10.2024",
        "receiverName": "DIY SDR RDA5807",
        "receiverImage": "./index_files/rda_diy_boot.jpg",
        "latRX": 58.8167,
        "lngRX": 30.3333,
        "latTX": 57.4219,
        "lngTX": 27.0522,
        "season": 2024
    },
    {
        "title": "SCONTOLV - 94.2 МГц",
        "video": null,
        "localVideo": "./dx_videos/sconto942_2024.mp4",
        "type": "тропо",
        "antennaDir": "Юго-Запад",
        "polarization": "Горизонтальная",
        "height": "1.5 м",
        "antennaType": "телескоп 750 мм",
        "antennaImage": null,
        "date": "05.10.2024",
        "receiverName": "DIY SDR RDA5807",
        "receiverImage": "./index_files/rda_diy_boot.jpg",
        "latRX": 58.8167,
        "lngRX": 30.3333,
        "latTX": 56.9679,
        "lngTX": 26.3088,
        "season": 2024
    },
    {
        "title": "TEV - 106.8 МГц",
        "video": null,
        "localVideo": "./dx_videos/1068_lr_2024.mp4",
        "type": "тропо",
        "antennaDir": "Юго-Запад",
        "polarization": "Горизонтальная",
        "height": "1.5 м",
        "antennaType": "телескоп 750 мм",
        "antennaImage": null,
        "date": "05.10.2024",
        "receiverName": "DIY SDR RDA5807",
        "receiverImage": "./index_files/rda_diy_boot.jpg",
        "latRX": 58.8167,
        "lngRX": 30.3333,
        "latTX": 56.9496,
        "lngTX": 24.1052,
        "season": 2024
    },
    {
    "title": "SR P1 - 93.8 МГц",
    "video": null,
    "localVideo": "./dx_videos/sved_2024.mp4",
    "type": "Тропо",
    "antennaDir": "Запад",
    "polarization": "Горизонтальная",
    "height": "13 м",
    "antennaType": "telescopic 860mm",
    "antennaImage": null,
    "date": "11.10.2024",
    "receiverName": "tef 6616 lada vesta",
    "receiverImage": "./index_files/1box.jpg",
    "latRX": 59.9343,
    "lngRX": 30.3351,
    "latTX": 59.3293,
    "lngTX": 18.0686,
    "season": 2024
},
{
    "title": "Radio Iași - 90.8 МГц",
    "video": null,
    "localVideo": "./dx_videos/rum_2026.mp4",
    "type": "Спорадик (Es)",
    "antennaDir": "Юго-Запад",
    "polarization": "Вертикальная",
    "height": "10 м",
    "antennaType": "диполь 10+10m",
    "date": "12.06.2026",
    "receiverName": "RTL-SDR v3",
    "receiverImage": "./index_files/websdr3.jpg",
    "latRX": 59.9343,
    "lngRX": 30.3351,
    "latTX": 47.4489,
    "lngTX": 25.5708,
    "season": 2026,
    "description": "Первый неожиданный улов даже на простенький кв диполь в 2026г, сезон открыт. Направление совпадает с прошлым сезоном."
},
    {
    "title": "Radio Nova - 107.7 МГц",
    "video": null,
    "localVideo": "./dx_videos/fin_1077.mp4",
    "type": "tropo",
    "antennaDir": "Северо-Запад",
    "polarization": "Вертикальная",
    "height": "10 м",
    "antennaType": "диполь 10+10m",
    "date": "12.06.2026",
    "receiverName": "RTL-SDR v3",
    "receiverImage": "./index_files/websdr3.jpg",
    "latRX": 59.9343,
    "lngRX": 30.3351,
    "latTX": 60.1699,
    "lngTX": 24.9384,
    "season": 2026,
    "description": "хорошее тропо пробивает насквозь горизонтальную станцию на вертикал, правда, скучная локалка переотраженная. С нормальной антенной и тюнером должно быть получше."
},
{
    "title": "Radio RKC - 91.7 МГц",
    "video": null,
    "localVideo": "./dx_videos/rkc_2026.mp4",
    "type": "Спорадик (Es)",
    "antennaDir": "Юго-Запад",
    "polarization": "Вертикальная",
    "height": "10 м",
    "antennaType": "диполь 10+10m",
    "date": "13.06.2026",
    "receiverName": "RTL-SDR v3",
    "receiverImage": "./index_files/websdr3.jpg",
    "latRX": 59.9343,
    "lngRX": 30.3351,
    "latTX": 43.5081,
    "lngTX": 16.4402,
    "season": 2026,
    "description": "Сильный спорадик как в прошлогоднем сезоне, канал приоткрылся на пару сек с rds, что упростило идентификацию"
},
{
    "title": "OE1 - 90.9 МГц",
    "video": null,
    "localVideo": "./dx_videos/oe1_2026.mp4",
    "type": "Спорадик (Es)",
    "antennaDir": "Юго-Запад",
    "polarization": "Вертикальная",
    "height": "10 м",
    "antennaType": "диполь 10+10m",
    "date": "14.06.2026",
    "receiverName": "RTL-SDR v3",
    "receiverImage": "./index_files/websdr3.jpg",
    "latRX": 59.9343,
    "lngRX": 30.3351,
    "latTX": 48.3859,
    "lngTX": 14.2583,
    "season": 2026,
    "description": "Хороший улов аж принятый мной перед экзаменом в вузе как бальзам"
},
{
    "title": "France Bleu Breizh Izel - 92.3 МГц",
    "video": null,
    "localVideo": "./dx_videos/fb_breizh_izel_923_2026.mp4",
    "type": "Спорадик (Es)",
    "antennaDir": "Запад-Юго-Запад",
    "polarization": "Вертикальная",
    "height": "10 м",
    "antennaType": "диполь 10+10m",
    "date": "15.06.2026",
    "receiverName": "RTL-SDR v3",
    "receiverImage": "./index_files/websdr3.jpg",
    "latRX": 59.9343,
    "lngRX": 30.3351,
    "latTX": 47.748,
    "lngTX": -3.367,
    "season": 2026,
    "description": "France Bleu Breizh Izel, передатчик Lorient / Ploemeur (Бретань). PI 0x3211, самый дальний канал на укв 3м за всю мою жизнь"
},
{
    "title": "ČRo Radiožurnál - 93.1 МГц",
    "video": null,
    "localVideo": "./dx_videos/r-zurnal_2026.mp4",
    "type": "Спорадик (Es)",
    "antennaDir": "Юго-Запад",
    "polarization": "Вертикальная",
    "height": "10 м",
    "antennaType": "диполь 10+10m",
    "date": "15.06.2026",
    "receiverName": "RTL-SDR v3",
    "receiverImage": "./index_files/websdr3.jpg",
    "latRX": 59.9343,
    "lngRX": 30.3351,
    "latTX": 49.8472,
    "lngTX": 18.1883,
    "season": 2026,
    "description": "ČRo Radiožurnál, передатчик Ostrava/Hošťálkovice. PI 0x232F, RDS R-ZURNAL. RDS-PT: CRANBERRIES"
},
{
    "title": "Radio F1 - 93.5 МГц",
    "video": null,
    "localVideo": "./dx_videos/radio-f1_2026.mp4",
    "type": "Спорадик (Es)",
    "antennaDir": "Юго-Запад",
    "polarization": "Вертикальная",
    "height": "10 м",
    "antennaType": "диполь 10+10m",
    "date": "16.06.2026",
    "receiverName": "RTL-SDR v3",
    "receiverImage": "./index_files/websdr3.jpg",
    "latRX": 59.9343,
    "lngRX": 30.3351,
    "latTX": 50.0833,
    "lngTX": 14.4667,
    "season": 2026,
    "description": "Radio F1 (Чехия), передатчик Praha. PI 0x2205, RDS RADIO F1."
},
{
    "title": "Yle Radio Vega - 99.5 МГц",
    "video": null,
    "localVideo": "./dx_videos/99_5_2026_ored.mp4",
    "type": "Тропо",
    "antennaDir": "Северо-Запад",
    "polarization": "Горизонтальная",
    "height": "60 м",
    "antennaType": "Телескоп 1.2м",
    "antennaImage": null,
    "date": "21.06.2026",
    "receiverName": "TEF6686",
    "receiverImage": null,
    "latRX": 58.8167,
    "lngRX": 30.3333,
    "latTX": 60.2500,
    "lngTX": 25.1000,
    "season": 2026,
    "description": "Yle Radio Vega, Финляндия. Приём из Оредежа, Лужский район c горы от самолета прохождение + тропо"
},
{
    "title": "Vikerraadio - 105.4 МГц",
    "video": null,
    "localVideo": "./dx_videos/105_4_vikker_ored.mp4",
    "type": "Тропо",
    "antennaDir": "Северо-Запад",
    "polarization": "Горизонтальная",
    "height": "60 м",
    "antennaType": "5-элементная Yagi",
    "antennaImage": null,
    "date": "21.06.2026",
    "receiverName": "TEF6686",
    "receiverImage": null,
    "latRX": 58.8167,
    "lngRX": 30.3333,
    "latTX": 59.3833,
    "lngTX": 27.7333,
    "season": 2026,
    "description": "Vikerraadio, Эстония. RDS: VIKER. Приём из Оредежа, Лужский район на TEF6686."
},
{
    "title": "TRT Nagme - 90.4 МГц",
    "video": null,
    "localVideo": "./dx_videos/trt_name.mp4",
    "type": "Спорадик (Es)",
    "antennaDir": "Юг",
    "polarization": "Горизонтальная",
    "height": "60 м",
    "antennaType": "Телескоп 1.2м",
    "antennaImage": null,
    "date": "20.06.2026",
    "receiverName": "TEF6686",
    "receiverImage": null,
    "latRX": 58.8167,
    "lngRX": 30.3333,
    "latTX": 39.9334,
    "lngTX": 32.8597,
    "season": 2026,
    "description": "TRT Nagme, Турция (Анкара). Спорадик (Es), частота 90.4 МГц."
},
{
    "title": "TRT Radyo 1 - 94.8 МГц",
    "video": null,
    "localVideo": "./dx_videos/trt_rd1_98_4.mp4",
    "type": "Спорадик (Es)",
    "antennaDir": "Юг",
    "polarization": "Горизонтальная",
    "height": "60 м",
    "antennaType": "Телескоп 1.2м",
    "antennaImage": null,
    "date": "20.06.2026",
    "receiverName": "TEF6686",
    "receiverImage": null,
    "latRX": 58.8167,
    "lngRX": 30.3333,
    "latTX": 39.9334,
    "lngTX": 32.8597,
    "season": 2026,
    "description": "TRT Radyo 1, Турция (Анкара). RDS: TRT RD 1, PI 0x3202. Спорадик (Es)"
},
{
    "title": "Yle Suomi - 94.0 МГц",
    "video": null,
    "localVideo": "./dx_videos/yle_suomi_94_0_ored.mp4",
    "type": "Тропо",
    "antennaDir": "Северо-Запад",
    "polarization": "Горизонтальная",
    "height": "3 м",
    "antennaType": "Телескоп 1.2м",
    "antennaImage": null,
    "date": "21.06.2026",
    "receiverName": "TEF6686",
    "receiverImage": null,
    "latRX": 58.8167,
    "lngRX": 30.3333,
    "latTX": 61.0583,
    "lngTX": 28.1864,
    "season": 2026,
    "description": "Yle Suomi, Финляндия (предположительно Лаппеенранта). Приём из Оредежа, Лужский район на TEF6686"
}

]